City_ID,City,Country,Lat,Lng,Max Temp,Humidity,Cloudiness,Wind Speed,Current Description,Date
0,Eyl,SO,7.9803,49.8164,75.27,68,52,19.06,broken clouds,2022-02-14 19:28:40
1,Daru,PG,-9.0763,143.2092,78.87,79,83,6.93,broken clouds,2022-02-14 19:28:40
2,Urdoma,RU,61.7533,48.5442,20.75,94,100,8.16,overcast clouds,2022-02-14 19:28:40
3,Paka,MY,4.6374,103.4368,78.73,94,96,2.3,overcast clouds,2022-02-14 19:28:41
4,Norman Wells,CA,65.282,-126.8329,-16.56,63,75,19.57,broken clouds,2022-02-14 19:28:41
5,Xining,CN,36.6167,101.7667,12.52,73,0,2.04,clear sky,2022-02-14 19:28:41
6,Zhigansk,RU,66.7697,123.3711,-39.01,99,35,3.67,scattered clouds,2022-02-14 19:28:42
7,Dikson,RU,73.5069,80.5464,-3.24,90,100,18.97,overcast clouds,2022-02-14 19:28:42
8,Ust-Tsilma,RU,65.441,52.1498,15.44,92,100,9.95,overcast clouds,2022-02-14 19:28:42
9,Juneau,US,58.3019,-134.4197,34.84,94,75,0.0,broken clouds,2022-02-14 19:24:46
10,Constitucion,CL,-35.3333,-72.4167,67.33,67,7,10.27,clear sky,2022-02-14 19:28:43
11,Victoria,HK,22.2855,114.1577,62.65,83,100,10.0,overcast clouds,2022-02-14 19:24:16
12,Port Augusta,AU,-32.5,137.7667,81.72,63,99,12.28,overcast clouds,2022-02-14 19:28:43
13,Jamestown,US,42.097,-79.2353,19.09,49,100,13.8,overcast clouds,2022-02-14 19:25:05
14,Ushuaia,AR,-54.8,-68.3,53.26,40,40,18.41,scattered clouds,2022-02-14 19:28:44
15,Butaritari,KI,3.0707,172.7902,82.06,74,35,17.25,light rain,2022-02-14 19:28:44
16,Barrow,US,71.2906,-156.7887,-25.58,62,100,8.05,overcast clouds,2022-02-14 19:26:52
17,Saint-Philippe,RE,-21.3585,55.7679,80.19,86,100,14.16,overcast clouds,2022-02-14 19:28:44
18,Punta Arenas,CL,-53.15,-70.9167,53.71,54,100,16.11,light rain,2022-02-14 19:25:16
19,Ulety,RU,51.3572,112.4849,-18.9,98,54,2.1,broken clouds,2022-02-14 19:28:45
20,Souillac,MU,-20.5167,57.5167,81.36,94,40,11.5,light rain,2022-02-14 19:28:45
21,Srednekolymsk,RU,67.45,153.6833,-33.09,99,34,6.29,scattered clouds,2022-02-14 19:28:45
22,Ponta Do Sol,PT,32.6667,-17.1,63.72,81,95,4.18,overcast clouds,2022-02-14 19:28:46
23,Rikitea,PF,-23.1203,-134.9692,78.44,68,91,9.42,overcast clouds,2022-02-14 19:28:46
24,Saldanha,ZA,-33.0117,17.9442,84.25,72,0,4.52,clear sky,2022-02-14 19:28:46
25,Hermanus,ZA,-34.4187,19.2345,71.8,80,0,16.04,clear sky,2022-02-14 19:28:47
26,Galle,LK,6.0367,80.217,78.6,80,81,7.47,broken clouds,2022-02-14 19:28:47
27,Kapaa,US,22.0752,-159.319,74.19,74,20,6.91,few clouds,2022-02-14 19:28:47
28,Lebu,CL,-37.6167,-73.65,64.94,72,1,9.35,clear sky,2022-02-14 19:28:48
29,Cidreira,BR,-30.1811,-50.2056,80.49,40,0,10.85,clear sky,2022-02-14 19:28:48
30,Ponta Delgada,PT,37.7333,-25.6667,62.51,63,20,4.61,few clouds,2022-02-14 19:28:48
31,Port Elizabeth,ZA,-33.918,25.5701,68.29,77,100,14.97,overcast clouds,2022-02-14 19:27:12
32,Wattegama,LK,6.7989,81.4808,70.95,82,93,4.63,overcast clouds,2022-02-14 19:28:49
33,Rafaela,AR,-31.2503,-61.4867,97.05,23,0,1.99,clear sky,2022-02-14 19:28:49
34,Busselton,AU,-33.65,115.3333,67.05,74,0,13.62,clear sky,2022-02-14 19:28:49
35,Port Alfred,ZA,-33.5906,26.891,70.23,79,100,23.26,overcast clouds,2022-02-14 19:28:50
36,Naze,JP,28.3667,129.4833,55.36,67,0,10.58,clear sky,2022-02-14 19:28:50
37,Kaitangata,NZ,-46.2817,169.8464,50.32,80,100,4.0,overcast clouds,2022-02-14 19:28:50
38,Gizo,SB,-8.103,156.8419,81.0,79,100,4.56,light rain,2022-02-14 19:25:09
39,Hilo,US,19.7297,-155.09,72.25,81,75,4.0,broken clouds,2022-02-14 19:28:51
40,Bezhanitsy,RU,56.9767,29.8907,31.77,82,100,11.9,overcast clouds,2022-02-14 19:28:51
41,Nome,US,64.5011,-165.4064,-2.13,55,0,9.22,clear sky,2022-02-14 19:28:11
42,Cody,US,44.5263,-109.0565,53.82,25,0,13.0,clear sky,2022-02-14 19:27:39
43,Champerico,GT,14.3,-91.9167,90.14,59,6,11.45,clear sky,2022-02-14 19:28:52
44,Japura,ID,-0.3167,102.35,73.87,98,62,2.73,broken clouds,2022-02-14 19:28:52
45,Coruripe,BR,-10.1256,-36.1756,84.2,60,100,15.1,overcast clouds,2022-02-14 19:28:52
46,Atuona,PF,-9.8,-139.0333,78.91,66,8,16.35,clear sky,2022-02-14 19:28:52
47,Kapoeta,SS,4.7717,33.5903,89.46,23,11,4.47,few clouds,2022-02-14 19:28:53
48,Meulaboh,ID,4.1363,96.1285,76.26,88,100,4.56,overcast clouds,2022-02-14 19:28:53
49,Mataura,NZ,-46.1927,168.8643,50.49,90,100,2.08,overcast clouds,2022-02-14 19:28:54
50,Shingu,JP,33.7333,135.9833,40.91,79,16,3.49,few clouds,2022-02-14 19:28:54
51,Georgetown,MY,5.4112,100.3354,78.73,94,40,4.61,scattered clouds,2022-02-14 19:27:54
52,Ekhabi,RU,53.5102,142.9671,-10.8,98,84,14.14,broken clouds,2022-02-14 19:28:54
53,Lavrentiya,RU,65.5833,-171.0,-18.26,95,34,7.7,scattered clouds,2022-02-14 19:28:55
54,Asyut,EG,27.181,31.1837,58.39,45,0,10.56,clear sky,2022-02-14 19:28:55
55,Mahebourg,MU,-20.4081,57.7,81.25,94,40,11.5,scattered clouds,2022-02-14 19:28:55
56,Arraial Do Cabo,BR,-22.9661,-42.0278,85.96,70,20,16.11,few clouds,2022-02-14 19:27:21
57,Bandar-E Lengeh,IR,26.5579,54.8807,69.89,63,0,7.67,clear sky,2022-02-14 19:28:56
58,Henties Bay,NA,-22.116,14.2845,75.85,81,17,2.57,few clouds,2022-02-14 19:28:56
59,Castro,BR,-24.7911,-50.0119,77.41,68,11,6.87,few clouds,2022-02-14 19:27:31
60,Haines Junction,CA,60.7522,-137.5108,6.75,85,100,0.0,overcast clouds,2022-02-14 19:28:56
61,Provideniya,RU,64.3833,-173.3,-10.28,91,100,12.08,overcast clouds,2022-02-14 19:28:57
62,Pauini,BR,-7.7136,-66.9764,75.76,92,100,2.21,moderate rain,2022-02-14 19:28:57
63,Bluff,NZ,-46.6,168.3333,50.81,88,100,10.69,overcast clouds,2022-02-14 19:28:57
64,Koungou,YT,-12.7336,45.2042,80.31,83,0,5.75,clear sky,2022-02-14 19:28:58
65,Harper,LR,4.375,-7.7169,79.14,80,64,3.11,light rain,2022-02-14 19:28:58
66,Tazovskiy,RU,67.4667,78.7,-13.38,99,76,9.93,broken clouds,2022-02-14 19:28:58
67,East London,ZA,-33.0153,27.9116,69.51,82,100,15.14,light rain,2022-02-14 19:28:59
68,Kayerkan,RU,69.3497,87.7602,-10.55,87,60,7.81,broken clouds,2022-02-14 19:28:59
69,Saskylakh,RU,71.9167,114.0833,-17.99,90,96,4.03,overcast clouds,2022-02-14 19:28:59
70,Verkhnyaya Toyma,RU,62.2349,44.9985,26.22,96,100,7.34,light snow,2022-02-14 19:29:00
71,Chuy,UY,-33.6971,-53.4616,81.14,40,0,11.39,clear sky,2022-02-14 19:29:00
72,Jackson,US,42.4165,-122.8345,53.47,54,75,11.5,broken clouds,2022-02-14 19:24:57
73,Nara,JP,34.6851,135.8049,39.97,76,0,2.68,clear sky,2022-02-14 19:29:01
74,Pangnirtung,CA,66.1451,-65.7125,-31.0,68,20,0.0,few clouds,2022-02-14 19:29:01
75,Ranong,TH,9.9658,98.6348,78.71,86,100,5.73,overcast clouds,2022-02-14 19:29:01
76,Nowa Deba,PL,50.4297,21.7508,37.9,75,5,11.83,clear sky,2022-02-14 19:29:02
77,Anzio,IT,41.4853,12.6179,54.73,84,100,13.2,overcast clouds,2022-02-14 19:28:51
78,Dingle,PH,10.9995,122.6711,73.45,91,100,6.35,overcast clouds,2022-02-14 19:29:02
79,Manbij,SY,36.5281,37.9549,45.37,88,4,11.01,clear sky,2022-02-14 19:29:02
80,Ilulissat,GL,69.2167,-51.1,-16.37,99,100,5.3,overcast clouds,2022-02-14 19:29:03
81,Cape Town,ZA,-33.9258,18.4232,78.12,61,0,10.36,clear sky,2022-02-14 19:25:54
82,Ancud,CL,-41.8697,-73.8203,77.23,61,9,10.36,clear sky,2022-02-14 19:29:03
83,Valdosta,US,30.8327,-83.2785,58.91,22,0,9.22,clear sky,2022-02-14 19:29:03
84,Albany,US,42.6001,-73.9662,19.81,35,73,10.0,broken clouds,2022-02-14 19:24:55
85,San Carlos,VE,9.6612,-68.5827,97.65,28,61,1.21,broken clouds,2022-02-14 19:29:04
86,Yellowknife,CA,62.456,-114.3525,-9.58,82,75,5.75,light snow,2022-02-14 19:29:04
87,Avera,US,33.194,-82.5271,56.91,30,0,12.75,clear sky,2022-02-14 19:29:04
88,Hobart,AU,-42.8794,147.3294,61.02,92,75,10.36,broken clouds,2022-02-14 19:29:05
89,Vaini,TO,-21.2,-175.2,78.96,89,20,4.61,few clouds,2022-02-14 19:29:05
90,Lompoc,US,34.6391,-120.4579,79.12,92,40,5.75,scattered clouds,2022-02-14 19:29:05
91,Port Blair,IN,11.6667,92.75,73.44,94,20,0.0,mist,2022-02-14 19:29:06
92,Fortuna,US,40.5982,-124.1573,54.93,90,100,6.91,overcast clouds,2022-02-14 19:29:06
93,Vostok,RU,46.4856,135.8833,9.03,95,100,3.76,overcast clouds,2022-02-14 19:29:06
94,Longyearbyen,SJ,78.2186,15.6401,15.64,79,75,9.22,light snow,2022-02-14 19:29:07
95,Lesnikovo,RU,55.2822,65.3175,-6.65,100,92,4.76,overcast clouds,2022-02-14 19:29:07
96,Hashtrud,IR,37.4779,47.0508,8.44,94,7,1.9,clear sky,2022-02-14 19:29:07
97,Artyom,AZ,40.4723,50.333,44.74,68,100,14.81,overcast clouds,2022-02-14 19:29:08
98,Fort-Shevchenko,KZ,44.5086,50.263,35.31,66,25,5.55,scattered clouds,2022-02-14 19:29:08
99,Bandarbeyla,SO,9.4942,50.8122,75.83,69,89,19.64,overcast clouds,2022-02-14 19:29:08
100,Ozernovskiy,RU,51.5,156.5167,23.4,80,100,4.05,overcast clouds,2022-02-14 19:29:09
101,Bredasdorp,ZA,-34.5322,20.0403,71.28,73,56,21.85,broken clouds,2022-02-14 19:29:09
102,Goulburn,AU,-34.75,149.7167,54.59,91,0,3.04,clear sky,2022-02-14 19:29:09
103,Pekan,MY,3.4836,103.3996,75.31,88,35,1.48,scattered clouds,2022-02-14 19:29:10
104,San Patricio,US,28.017,-97.5169,70.21,34,0,9.31,clear sky,2022-02-14 19:29:10
105,Abbeville,FR,50.1,1.8333,46.36,90,90,9.93,overcast clouds,2022-02-14 19:29:10
106,Adre,TD,13.4667,22.2,74.16,15,23,9.22,few clouds,2022-02-14 19:29:11
107,Tuatapere,NZ,-46.1333,167.6833,50.83,81,100,3.33,overcast clouds,2022-02-14 19:29:11
108,Bengkulu,ID,-3.8004,102.2655,75.72,86,100,3.29,overcast clouds,2022-02-14 19:29:11
109,Bubaque,GW,11.2833,-15.8333,79.2,67,7,15.7,clear sky,2022-02-14 19:29:12
110,Martapura,ID,-3.4167,114.85,75.29,100,20,1.14,few clouds,2022-02-14 19:29:12
111,Kandalaksha,RU,67.162,32.4123,7.97,93,19,4.5,few clouds,2022-02-14 19:29:12
112,Abnub,EG,27.2696,31.1511,58.41,46,0,10.27,clear sky,2022-02-14 19:29:12
113,Nanortalik,GL,60.1432,-45.2371,15.01,67,63,43.93,broken clouds,2022-02-14 19:29:13
114,Palmer,US,42.1584,-72.3287,22.64,37,20,17.27,few clouds,2022-02-14 19:29:13
115,Pundaguitan,PH,6.3711,126.1689,80.31,79,46,12.44,scattered clouds,2022-02-14 19:29:14
116,Narsaq,GL,60.9167,-46.05,14.22,66,63,17.85,broken clouds,2022-02-14 19:29:14
117,Carnarvon,AU,-24.8667,113.6333,78.87,89,6,5.75,clear sky,2022-02-14 19:29:14
118,Kavieng,PG,-2.5744,150.7967,82.27,75,72,7.61,broken clouds,2022-02-14 19:29:15
119,Kaeo,NZ,-35.1,173.7833,59.32,94,5,5.39,clear sky,2022-02-14 19:29:15
120,Lamar,US,33.6668,-95.5836,71.37,19,0,13.8,clear sky,2022-02-14 19:29:15
121,Sindor,RU,62.8629,51.8905,18.99,94,100,8.79,light snow,2022-02-14 19:29:16
122,Inhambane,MZ,-23.865,35.3833,76.98,83,40,5.75,scattered clouds,2022-02-14 19:29:16
123,Antofagasta,CL,-23.65,-70.4,75.22,62,25,10.56,scattered clouds,2022-02-14 19:29:16
124,Thompson,CA,55.7435,-97.8558,-12.84,58,0,3.44,clear sky,2022-02-14 19:29:17
125,Coquimbo,CL,-29.9533,-71.3436,71.33,60,0,14.97,clear sky,2022-02-14 19:29:17
126,Abu Dhabi,AE,24.4667,54.3667,69.91,68,0,5.75,clear sky,2022-02-14 19:29:17
127,Laguna,US,38.421,-121.4238,73.65,77,0,11.5,haze,2022-02-14 19:29:18
128,Itupiranga,BR,-5.1347,-49.3267,89.92,64,88,1.81,overcast clouds,2022-02-14 19:29:18
129,Yantzaza,EC,-3.8278,-78.7594,81.97,65,58,2.21,light rain,2022-02-14 19:29:18
130,Rio Grande,BR,-32.035,-52.0986,87.91,44,0,13.96,clear sky,2022-02-14 19:29:19
131,Fukue,JP,32.6881,128.8419,49.37,70,66,21.88,broken clouds,2022-02-14 19:29:19
132,Lichinga,MZ,-13.3128,35.2406,62.22,97,100,0.56,moderate rain,2022-02-14 19:29:19
133,San Cristobal,VE,7.7669,-72.225,78.98,43,100,2.37,overcast clouds,2022-02-14 19:29:20
134,Emba,KZ,48.8264,58.1442,-2.45,100,99,2.26,overcast clouds,2022-02-14 19:29:20
135,Praia,CV,14.9215,-23.5087,73.94,68,0,18.41,clear sky,2022-02-14 19:29:20
136,Susa,TN,35.8254,10.637,59.52,82,98,5.75,overcast clouds,2022-02-14 19:29:21
137,Tuktoyaktuk,CA,69.4541,-133.0374,-27.4,68,20,10.36,few clouds,2022-02-14 19:29:21
138,Phangnga,TH,8.4509,98.5298,82.81,95,79,3.4,broken clouds,2022-02-14 19:29:21
139,Tashara,RU,55.5195,83.5094,-0.76,100,99,3.91,overcast clouds,2022-02-14 19:29:22
140,Baran,IN,25.1,76.5167,62.78,29,26,7.52,scattered clouds,2022-02-14 19:29:22
141,Upernavik,GL,72.7868,-56.1549,-8.84,99,100,7.58,overcast clouds,2022-02-14 19:29:22
142,Iqaluit,CA,63.7506,-68.5145,-13.27,77,100,2.3,light snow,2022-02-14 19:29:23
143,Marathon,US,44.9,-89.7668,18.64,59,0,5.75,clear sky,2022-02-14 19:29:23
144,Broome,US,42.2506,-75.833,19.47,61,40,11.5,scattered clouds,2022-02-14 19:29:23
145,Hovd,MN,48.0056,91.6419,-10.53,88,100,0.58,overcast clouds,2022-02-14 19:29:24
146,Zabol,AF,32.25,67.25,40.48,66,6,8.9,clear sky,2022-02-14 19:29:24
147,Faanui,PF,-16.4833,-151.75,80.42,78,100,18.61,light rain,2022-02-14 19:29:24
148,Cherskiy,RU,68.75,161.3,-29.99,100,98,5.61,overcast clouds,2022-02-14 19:29:25
149,Te Anau,NZ,-45.4167,167.7167,50.94,78,100,1.05,overcast clouds,2022-02-14 19:29:25
150,Korla,CN,41.7597,86.1469,31.42,49,100,7.11,overcast clouds,2022-02-14 19:29:26
151,Margate,GB,51.3813,1.3862,44.89,83,48,3.0,scattered clouds,2022-02-14 19:29:26
152,Okhotsk,RU,59.3833,143.3,-8.01,73,96,16.02,overcast clouds,2022-02-14 19:29:26
153,Biltine,TD,14.5333,20.9167,79.95,13,100,9.04,overcast clouds,2022-02-14 19:29:26
154,Agadez,NE,19.75,10.25,69.21,10,0,8.28,clear sky,2022-02-14 19:29:27
155,Bud,US,39.447,-86.1758,31.42,56,8,5.46,clear sky,2022-02-14 19:29:27
156,Ribeira Grande,PT,38.5167,-28.7,61.2,82,40,5.75,scattered clouds,2022-02-14 19:29:27
157,Kenai,US,60.5544,-151.2583,25.09,93,100,8.05,overcast clouds,2022-02-14 19:29:28
158,Parrita,CR,9.5201,-84.3225,92.26,62,7,8.75,clear sky,2022-02-14 19:29:28
159,Talara,PE,-4.5772,-81.2719,86.76,48,0,17.27,clear sky,2022-02-14 19:29:28
160,Puerto Ayora,EC,-0.7393,-90.3518,80.55,89,97,5.99,overcast clouds,2022-02-14 19:29:29
161,Pevek,RU,69.7008,170.3133,-22.22,99,100,5.44,overcast clouds,2022-02-14 19:29:29
162,Petrovskaya,RU,45.4314,37.955,37.89,62,100,11.41,overcast clouds,2022-02-14 19:29:29
163,Kawalu,ID,-7.3817,108.2082,72.46,96,100,0.34,overcast clouds,2022-02-14 19:29:29
164,Masuguru,TZ,-11.3667,38.4167,73.27,96,100,4.16,light rain,2022-02-14 19:29:30
165,Popondetta,PG,-8.7537,148.2534,72.75,95,32,2.86,scattered clouds,2022-02-14 19:29:30
166,Pisco,PE,-13.7,-76.2167,80.65,57,0,9.22,clear sky,2022-02-14 19:29:30
167,Beloha,MG,-25.1667,45.05,77.76,68,0,4.59,clear sky,2022-02-14 19:29:31
168,New Norfolk,AU,-42.7826,147.0587,60.66,79,100,1.79,overcast clouds,2022-02-14 19:29:31
169,Tasiilaq,GL,65.6145,-37.6368,28.56,69,100,49.35,light snow,2022-02-14 19:29:31
170,Verkh-Usugli,RU,52.7,115.1667,-12.05,98,100,2.37,overcast clouds,2022-02-14 19:29:32
171,Troitskoye,RU,52.9821,84.6757,19.99,86,100,8.12,overcast clouds,2022-02-14 19:29:32
172,Katsuura,JP,35.1333,140.3,35.71,68,83,5.99,broken clouds,2022-02-14 19:29:32
173,Guerrero Negro,MX,27.9769,-114.0611,78.6,22,0,6.53,clear sky,2022-02-14 19:29:33
174,Pontal Do Parana,BR,-25.6533,-48.5128,96.46,71,50,7.47,scattered clouds,2022-02-14 19:29:33
175,Sretensk,RU,52.2453,117.7093,-11.49,100,100,1.68,overcast clouds,2022-02-14 19:29:33
176,Mahon,ES,39.8885,4.2658,50.56,81,20,5.75,few clouds,2022-02-14 19:29:34
177,Padang,ID,-0.9492,100.3543,76.8,83,96,4.45,overcast clouds,2022-02-14 19:29:34
178,Sobolevo,RU,54.4299,31.8996,26.37,90,22,12.21,few clouds,2022-02-14 19:29:34
179,Bethel,US,41.3712,-73.414,24.21,44,0,13.8,clear sky,2022-02-14 19:29:35
180,Mogzon,RU,51.7435,111.9606,-27.27,100,47,0.49,scattered clouds,2022-02-14 19:29:35
181,Nemuro,JP,43.3236,145.575,23.18,76,70,12.73,broken clouds,2022-02-14 19:29:35
182,Puerto Quijarro,BO,-17.7833,-57.7667,89.89,53,100,2.17,light rain,2022-02-14 19:29:36
183,Havre-Saint-Pierre,CA,50.2334,-63.5986,3.2,60,0,8.05,clear sky,2022-02-14 19:29:36
184,Necochea,AR,-38.5473,-58.7368,87.15,29,5,4.09,clear sky,2022-02-14 19:29:36
185,Tilichiki,RU,60.4667,166.1,-19.5,92,100,10.76,overcast clouds,2022-02-14 19:29:37
186,Lagoa,PT,39.05,-27.9833,59.36,75,92,11.14,overcast clouds,2022-02-14 19:29:37
187,Omsukchan,RU,62.5333,155.8,-32.19,99,100,4.5,overcast clouds,2022-02-14 19:29:37
188,Avarua,CK,-21.2078,-159.775,78.85,83,100,8.05,overcast clouds,2022-02-14 19:27:53
189,Fort Nelson,CA,58.8053,-122.7002,-0.81,71,20,3.44,few clouds,2022-02-14 19:25:32
190,Alice Springs,AU,-23.7,133.8833,71.15,83,21,0.0,few clouds,2022-02-14 19:29:38
191,Hobyo,SO,5.3505,48.5268,77.16,66,100,20.33,overcast clouds,2022-02-14 19:29:38
192,Saint George,US,37.1041,-113.5841,68.47,20,0,0.0,clear sky,2022-02-14 19:29:38
193,Esperance,AU,-33.8667,121.9,62.44,77,24,11.52,few clouds,2022-02-14 19:29:39
194,Rusape,ZW,-18.5278,32.1284,67.96,62,90,7.52,overcast clouds,2022-02-14 19:29:39
195,Carutapera,BR,-1.195,-46.02,78.49,91,100,7.18,moderate rain,2022-02-14 19:29:39
196,Qaanaaq,GL,77.484,-69.3632,-1.28,98,100,8.39,light snow,2022-02-14 19:29:40
197,Codrington,AU,-38.2667,141.9667,55.62,86,1,9.22,clear sky,2022-02-14 19:29:40
198,Paramirim,BR,-13.4425,-42.2389,80.37,71,94,3.38,light rain,2022-02-14 19:29:40
199,Cuddapah,IN,14.4667,78.8167,69.82,84,7,6.08,clear sky,2022-02-14 19:29:41
200,San Quintin,MX,30.4833,-115.95,70.5,40,0,7.61,clear sky,2022-02-14 19:29:41
201,Cabedelo,BR,-6.9811,-34.8339,84.87,63,100,12.15,overcast clouds,2022-02-14 19:29:41
202,Airai,TL,-8.9266,125.4092,58.12,92,21,3.06,few clouds,2022-02-14 19:29:42
203,Robertsport,LR,6.7533,-11.3686,81.3,79,38,11.34,scattered clouds,2022-02-14 19:29:42
204,Sal Rei,CV,16.1833,-22.9167,72.16,83,75,16.11,broken clouds,2022-02-14 19:29:42
205,Kahului,US,20.8947,-156.47,75.22,64,20,6.91,few clouds,2022-02-14 19:29:43
206,Pyu,MM,18.4833,96.4333,64.4,30,85,6.6,overcast clouds,2022-02-14 19:29:43
207,Trinidad,BO,-14.8333,-64.9,87.78,58,40,4.61,scattered clouds,2022-02-14 19:29:43
208,Muravlenko,RU,63.7898,74.523,-6.23,100,100,6.64,overcast clouds,2022-02-14 19:29:43
209,Thurso,GB,58.5927,-3.5259,39.15,65,8,6.67,clear sky,2022-02-14 19:29:07
210,Waounde,SN,15.2637,-12.8682,86.04,12,43,10.11,scattered clouds,2022-02-14 19:25:17
211,Rudbar,AF,30.15,62.6,50.34,42,0,11.77,clear sky,2022-02-14 19:29:44
212,Yzeure,FR,46.5644,3.355,44.96,88,26,5.79,scattered clouds,2022-02-14 19:29:44
213,Iskateley,RU,67.6803,53.1512,9.03,89,100,17.96,overcast clouds,2022-02-14 19:29:45
214,Pangody,RU,65.85,74.4859,-16.67,100,95,7.31,overcast clouds,2022-02-14 19:29:45
215,Santiago,CL,-33.4569,-70.6483,88.29,33,0,13.8,clear sky,2022-02-14 19:27:09
216,Kloulklubed,PW,7.0419,134.2556,79.3,75,11,13.69,few clouds,2022-02-14 19:29:45
217,Inirida,CO,3.8653,-67.9239,91.94,48,100,0.67,overcast clouds,2022-02-14 19:29:46
218,Livny,RU,52.4253,37.6069,18.93,92,51,9.73,broken clouds,2022-02-14 19:29:46
219,Mar Del Plata,AR,-38.0023,-57.5575,77.02,84,0,13.0,clear sky,2022-02-14 19:27:38
220,Luderitz,NA,-26.6481,15.1594,70.47,77,1,6.71,clear sky,2022-02-14 19:29:46
221,Christchurch,NZ,-43.5333,172.6333,57.94,88,100,4.61,overcast clouds,2022-02-14 19:25:06
222,Prince Rupert,CA,54.3161,-130.3201,46.09,81,0,3.44,clear sky,2022-02-14 19:25:07
223,El Cobre,CU,20.0489,-75.9469,90.84,46,40,11.5,scattered clouds,2022-02-14 19:29:47
224,Mandal,IN,25.45,74.5667,60.13,34,0,3.15,clear sky,2022-02-14 19:29:47
225,Port Lincoln,AU,-34.7333,135.8667,63.79,81,100,14.61,overcast clouds,2022-02-14 19:29:48
226,Cayenne,GF,4.9333,-52.3333,78.1,90,75,7.0,broken clouds,2022-02-14 19:29:48
227,Camana,PE,-16.6228,-72.7111,74.84,70,15,8.57,few clouds,2022-02-14 19:29:48
228,Rio Cuarto,AR,-33.1307,-64.3499,88.66,29,0,11.5,clear sky,2022-02-14 19:29:48
229,Aripuana,BR,-9.1667,-60.6333,78.62,94,95,4.07,moderate rain,2022-02-14 19:29:49
230,Sitka,US,57.0531,-135.33,39.09,87,75,6.91,broken clouds,2022-02-14 19:29:49
231,Beringovskiy,RU,63.05,179.3167,-20.4,96,100,13.04,overcast clouds,2022-02-14 19:29:49
232,Hithadhoo,MV,-0.6,73.0833,82.27,71,92,11.3,overcast clouds,2022-02-14 19:29:50
233,Cabo San Lucas,MX,22.8909,-109.9124,90.7,47,0,10.36,clear sky,2022-02-14 19:25:56
234,Porto Real,BR,-22.4197,-44.2903,84.69,74,7,2.35,clear sky,2022-02-14 19:29:50
235,Tautira,PF,-17.7333,-149.15,86.02,76,76,17.92,light rain,2022-02-14 19:29:50
236,Sabang,ID,5.8933,95.3214,81.01,73,77,2.08,broken clouds,2022-02-14 19:29:51
237,Goderich,CA,43.7501,-81.7165,17.91,48,100,1.14,overcast clouds,2022-02-14 19:29:51
238,Baculin,PH,7.4525,126.5842,76.6,87,81,8.08,broken clouds,2022-02-14 19:29:51
239,Tamworth,GB,52.634,-1.6959,44.47,86,100,8.99,overcast clouds,2022-02-14 19:28:17
240,Vao,NC,-22.6667,167.4833,79.25,84,64,18.79,broken clouds,2022-02-14 19:29:52
241,Los Llanos De Aridane,ES,28.6585,-17.9182,61.12,81,75,9.22,drizzle,2022-02-14 19:29:52
242,Ngunguru,NZ,-35.6167,174.5,59.16,68,98,12.39,overcast clouds,2022-02-14 19:29:53
243,Bowen,AU,-20.0167,148.2333,73.62,84,100,15.93,overcast clouds,2022-02-14 19:29:53
244,Sao Joao Da Barra,BR,-21.6403,-41.0511,86.09,86,13,14.41,few clouds,2022-02-14 19:29:53
245,Zhezkazgan,KZ,47.8043,67.7144,14.95,85,89,17.67,overcast clouds,2022-02-14 19:29:53
246,Nikolskoye,RU,59.7035,30.7861,36.88,89,100,10.27,overcast clouds,2022-02-14 19:29:54
247,Wewak,PG,-3.5534,143.6268,77.07,92,100,5.39,heavy intensity rain,2022-02-14 19:29:54
248,Bushehr,IR,28.9684,50.8385,62.69,82,0,0.0,mist,2022-02-14 19:29:54
249,Ketchikan,US,55.3422,-131.6461,42.78,81,0,10.36,clear sky,2022-02-14 19:29:55
250,Bambous Virieux,MU,-20.3428,57.7575,81.21,94,40,11.5,light rain,2022-02-14 19:29:55
251,Luxor,EG,25.6989,32.6421,62.92,26,0,10.78,clear sky,2022-02-14 19:29:55
252,Fukuma,JP,33.7667,130.4667,50.04,62,32,17.47,scattered clouds,2022-02-14 19:29:56
253,La Libertad,EC,-2.2333,-80.9,82.06,69,0,5.75,clear sky,2022-02-14 19:29:56
254,Plouzane,FR,48.3833,-4.6167,49.08,84,40,13.8,scattered clouds,2022-02-14 19:29:56
255,Yamada,JP,39.4667,141.95,31.78,79,100,2.1,overcast clouds,2022-02-14 19:29:57
256,Fare,PF,-16.7,-151.0167,80.85,76,84,18.01,broken clouds,2022-02-14 19:29:57
257,Panjab,AF,34.388,67.0233,4.15,100,79,4.59,broken clouds,2022-02-14 19:29:57
258,Kadoma,JP,34.7333,135.5833,40.66,76,4,2.62,clear sky,2022-02-14 19:29:58
259,Villa Altagracia,DO,18.673,-70.171,90.64,51,58,5.82,broken clouds,2022-02-14 19:29:58
260,Kulhudhuffushi,MV,6.6221,73.07,81.41,68,84,2.37,broken clouds,2022-02-14 19:29:58
261,Port Pirie,AU,-33.1833,138.0167,69.89,49,99,6.85,overcast clouds,2022-02-14 19:29:59
262,Fiumicino,IT,41.7675,12.2291,55.38,83,40,5.75,scattered clouds,2022-02-14 19:29:59
263,Hibbing,US,47.4272,-92.9377,11.7,66,0,10.36,clear sky,2022-02-14 19:29:59
264,Flinders,AU,-34.5833,150.8552,68.38,83,30,5.99,scattered clouds,2022-02-14 19:30:00
265,Prestea,GH,5.4327,-2.1428,76.37,90,100,7.7,moderate rain,2022-02-14 19:30:00
266,Adrar,MR,20.5022,-10.0711,66.38,17,100,10.38,overcast clouds,2022-02-14 19:30:01
267,Emerald,AU,-23.5333,148.1667,69.94,83,0,8.05,clear sky,2022-02-14 19:30:01
268,Pagudpud,PH,18.5616,120.7868,73.11,89,72,16.84,light rain,2022-02-14 19:30:02
269,Portland,US,45.5234,-122.6762,49.93,86,75,5.75,broken clouds,2022-02-14 19:30:03
270,Lorengau,PG,-2.0226,147.2712,79.52,82,51,2.51,broken clouds,2022-02-14 19:30:04
271,Evensk,RU,61.95,159.2333,0.43,68,99,11.63,overcast clouds,2022-02-14 19:30:05
272,Parbatipur,BD,25.6649,88.9247,62.91,52,0,5.08,clear sky,2022-02-14 19:30:05
273,Lata,PT,40.1629,-8.3327,53.82,93,7,2.21,clear sky,2022-02-14 19:30:06
274,Bonthe,SL,7.5264,-12.505,79.79,79,9,7.11,clear sky,2022-02-14 19:30:07
275,Kismayo,SO,-0.3582,42.5454,77.56,80,84,14.2,broken clouds,2022-02-14 19:30:08
276,Butembo,CD,0.15,29.2833,63.41,58,59,2.86,broken clouds,2022-02-14 19:30:08
277,Ahipara,NZ,-35.1667,173.1667,64.78,70,1,4.76,clear sky,2022-02-14 19:30:09
278,Guadalajara,MX,20.6667,-103.3333,71.31,28,75,0.0,broken clouds,2022-02-14 19:30:07
279,Helena,US,46.5927,-112.0361,47.98,46,20,5.75,few clouds,2022-02-14 19:30:09
280,Nishihara,JP,26.1842,127.7558,61.88,72,75,10.36,broken clouds,2022-02-14 19:30:10
281,Winnemucca,US,40.973,-117.7357,57.11,26,0,16.11,clear sky,2022-02-14 19:29:07
282,Tucurui,BR,-3.7661,-49.6725,77.34,87,99,2.48,overcast clouds,2022-02-14 19:30:10
283,Filingue,NE,14.3521,3.3168,81.97,10,0,8.81,clear sky,2022-02-14 19:30:10
284,Trelleborg,SE,55.3751,13.1569,44.37,91,19,14.09,few clouds,2022-02-14 19:30:11
285,Kokkola,FI,63.8385,23.1307,17.04,89,0,5.75,clear sky,2022-02-14 19:30:11
286,Pochutla,MX,15.7432,-96.4661,89.42,31,10,8.48,clear sky,2022-02-14 19:30:11
287,Disna,BY,55.568,28.1971,30.0,87,90,12.77,overcast clouds,2022-02-14 19:30:12
288,Anadyr,RU,64.75,177.4833,-35.9,73,20,6.71,mist,2022-02-14 19:30:12
289,Portales,US,34.1862,-103.3344,63.1,20,0,15.46,clear sky,2022-02-14 19:30:12
290,Kamaishi,JP,39.2667,141.8833,32.58,77,98,3.31,overcast clouds,2022-02-14 19:30:13
291,Kavaratti,IN,10.5669,72.642,80.4,72,0,2.19,clear sky,2022-02-14 19:30:13
292,Soe,ID,-9.8607,124.284,66.27,93,54,4.38,broken clouds,2022-02-14 19:30:13
293,Wukari,NG,7.85,9.7833,83.34,13,1,5.01,clear sky,2022-02-14 19:30:14
294,Xuddur,SO,4.1213,43.8894,78.17,31,100,11.34,overcast clouds,2022-02-14 19:30:14
295,Primorsk,UA,46.7348,36.3443,36.1,77,0,11.72,clear sky,2022-02-14 19:30:14
296,Altos Del Rosario,CO,8.7944,-74.1658,95.54,38,86,3.11,overcast clouds,2022-02-14 19:30:15
297,Wanning,CN,18.8003,110.3967,66.99,92,100,8.19,overcast clouds,2022-02-14 19:30:15
298,San Clemente,US,33.427,-117.612,84.04,39,26,1.99,scattered clouds,2022-02-14 19:25:57
299,Kinango,KE,-4.1372,39.3153,74.52,89,100,2.01,overcast clouds,2022-02-14 19:30:15
300,Jinchang,CN,38.4953,102.1739,23.18,57,3,5.23,clear sky,2022-02-14 19:30:16
301,Torbay,CA,47.6666,-52.7314,25.75,93,100,32.01,snow,2022-02-14 19:30:16
302,Manokwari,ID,-0.8667,134.0833,77.41,83,100,4.29,heavy intensity rain,2022-02-14 19:30:16
303,Boyolangu,ID,-8.1181,111.8935,74.41,96,100,3.8,moderate rain,2022-02-14 19:30:17
304,Luganville,VU,-15.5333,167.1667,80.85,83,57,8.57,broken clouds,2022-02-14 19:30:17
305,Shetpe,KZ,44.1667,52.1167,31.44,65,23,2.48,few clouds,2022-02-14 19:30:18
306,Khor,RU,47.8861,134.9464,9.63,95,100,8.21,overcast clouds,2022-02-14 19:30:18
307,Svarstad,NO,59.399,9.9698,41.83,57,100,4.85,snow,2022-02-14 19:30:18
308,Ribera,IT,37.4984,13.2642,55.71,93,36,5.77,scattered clouds,2022-02-14 19:30:19
309,Quatre Cocos,MU,-20.2078,57.7625,81.09,88,49,12.17,moderate rain,2022-02-14 19:30:19
310,Melito Di Porto Salvo,IT,37.9222,15.7714,56.73,71,75,5.75,broken clouds,2022-02-14 19:30:19
311,Ahuimanu,US,21.4447,-157.8378,75.45,64,20,8.05,few clouds,2022-02-14 19:30:20
312,Kodiak,US,57.79,-152.4072,38.71,75,100,10.36,overcast clouds,2022-02-14 19:30:20
313,Alofi,NU,-19.0595,-169.9187,76.89,88,75,3.44,broken clouds,2022-02-14 19:30:20
314,Panalingaan,PH,8.7842,117.4231,77.13,82,100,2.66,overcast clouds,2022-02-14 19:30:21
315,Conceicao Do Araguaia,BR,-8.2578,-49.2647,83.03,71,95,4.41,overcast clouds,2022-02-14 19:30:21
316,Udaipur,IN,24.5712,73.6918,58.91,34,0,6.53,clear sky,2022-02-14 19:29:17
317,Sokoni,TZ,-6.4333,39.55,80.51,81,100,8.48,overcast clouds,2022-02-14 19:30:21
318,Fougamou,GA,-1.2154,10.5838,74.1,95,100,3.15,overcast clouds,2022-02-14 19:30:22
319,Udachnyy,RU,66.4167,112.4,-22.09,84,68,3.33,broken clouds,2022-02-14 19:30:22
320,Hasaki,JP,35.7333,140.8333,32.29,52,47,3.51,scattered clouds,2022-02-14 19:30:22
321,Mount Gambier,AU,-37.8333,140.7667,51.71,93,39,9.22,scattered clouds,2022-02-14 19:30:23
322,Jorochito,BO,-18.05,-63.4333,88.12,37,91,7.38,overcast clouds,2022-02-14 19:30:23
323,Pineville,US,31.3224,-92.4343,68.25,26,0,10.36,clear sky,2022-02-14 19:30:23
324,Manjeri,IN,11.1167,76.1167,79.48,83,20,0.0,few clouds,2022-02-14 19:30:24
325,Vila Velha,BR,-20.3297,-40.2925,84.15,83,40,17.27,scattered clouds,2022-02-14 19:27:16
326,Selma,US,36.5708,-119.6121,74.03,46,100,2.86,overcast clouds,2022-02-14 19:30:24
327,Ettaiyapuram,IN,9.1441,77.9907,75.45,75,24,6.71,few clouds,2022-02-14 19:30:24
328,Buala,SB,-8.145,159.5921,78.82,87,100,7.76,light rain,2022-02-14 19:30:25
329,Aksarka,RU,66.5606,67.7975,-31.22,100,89,1.41,overcast clouds,2022-02-14 19:30:25
330,Portsmouth,GB,50.799,-1.0913,46.72,88,71,15.99,broken clouds,2022-02-14 19:30:25
331,Nioro,GM,13.35,-15.75,85.44,11,22,7.7,few clouds,2022-02-14 19:30:26
332,Kichera,RU,55.9375,110.0997,-13.29,80,1,4.72,clear sky,2022-02-14 19:30:26
333,Inongo,CD,-1.95,18.2667,77.09,71,87,5.41,overcast clouds,2022-02-14 19:30:26
334,Rudnogorsk,RU,57.2639,103.7519,-29.51,100,36,2.37,scattered clouds,2022-02-14 19:30:27
335,Bulgan,MN,48.8125,103.5347,-16.73,97,30,2.59,scattered clouds,2022-02-14 19:30:27
336,Homer,US,59.6425,-151.5483,31.77,93,100,8.99,mist,2022-02-14 19:30:27
337,Mayumba,GA,-3.432,10.6554,77.58,82,100,1.39,overcast clouds,2022-02-14 19:30:28
338,Imeni Stepana Razina,RU,54.8932,44.2963,21.96,95,96,9.55,overcast clouds,2022-02-14 19:30:28
339,Havelock,US,34.8791,-76.9013,51.78,52,20,9.22,few clouds,2022-02-14 19:30:28
340,Taksimo,RU,56.3444,114.8794,-24.23,92,60,1.32,broken clouds,2022-02-14 19:30:29
341,Batemans Bay,AU,-35.7167,150.1833,67.1,85,0,4.18,clear sky,2022-02-14 19:30:29
342,Kathu,TH,7.9178,98.3332,82.62,80,100,14.94,overcast clouds,2022-02-14 19:30:29
343,Gandajika,CD,-6.75,23.95,66.36,93,17,3.44,few clouds,2022-02-14 19:30:30
344,Santa Maria,BR,-29.6842,-53.8069,81.7,32,0,4.61,clear sky,2022-02-14 19:29:23
345,Mazyr,BY,52.0495,29.2456,29.62,78,2,10.45,clear sky,2022-02-14 19:30:30
346,Santa Vitoria Do Palmar,BR,-33.5189,-53.3681,79.99,43,0,10.74,clear sky,2022-02-14 19:30:30
347,Yagodnoye,RU,62.55,149.6667,-30.78,99,56,4.12,broken clouds,2022-02-14 19:30:31
348,Ranikhet,IN,29.65,79.4167,38.41,87,10,2.8,clear sky,2022-02-14 19:30:31
349,San Severino Marche,IT,43.2281,13.1802,50.56,81,52,5.5,broken clouds,2022-02-14 19:30:31
350,Matay,EG,28.419,30.7792,56.16,56,0,10.16,clear sky,2022-02-14 19:30:32
351,La Ronge,CA,55.1001,-105.2842,-1.95,60,75,8.05,broken clouds,2022-02-14 19:30:32
352,Pavlohrad,UA,48.5167,35.8667,31.15,65,0,5.23,clear sky,2022-02-14 19:30:32
353,Itarema,BR,-2.9248,-39.9167,82.81,72,62,15.21,light rain,2022-02-14 19:30:32
354,Ozerna,UA,49.6289,25.329,30.2,74,12,10.83,few clouds,2022-02-14 19:30:33
355,Camacha,PT,33.0833,-16.3333,59.54,67,20,6.91,few clouds,2022-02-14 19:30:33
356,Chokurdakh,RU,70.6333,147.9167,-22.4,97,25,7.4,scattered clouds,2022-02-14 19:30:33
357,Raga,SS,8.4596,25.678,75.29,13,8,3.96,clear sky,2022-02-14 19:30:17
358,Songjianghe,CN,42.1859,127.479,0.07,96,100,3.6,overcast clouds,2022-02-14 19:30:34
359,Klaksvik,FO,62.2266,-6.589,31.12,59,100,18.54,overcast clouds,2022-02-14 19:30:34
360,Chapais,CA,49.7834,-74.8492,-0.62,76,100,8.16,overcast clouds,2022-02-14 19:30:35
361,Ixtapa,MX,20.7,-105.2,81.63,54,0,10.36,clear sky,2022-02-14 19:30:35
362,Poopo,BO,-18.3667,-66.9667,59.5,41,53,7.65,broken clouds,2022-02-14 19:30:35
363,Novo Aripuana,BR,-5.1206,-60.3797,72.79,99,100,1.81,overcast clouds,2022-02-14 19:30:35
364,Hami,CN,42.8,93.45,27.27,44,33,4.56,scattered clouds,2022-02-14 19:30:36
365,Duku,NG,11.2361,4.9073,85.53,12,39,7.23,scattered clouds,2022-02-14 19:30:36
366,Smithers,CA,54.7804,-127.1743,34.12,93,40,2.3,scattered clouds,2022-02-14 19:25:43
367,Road Town,VG,18.4167,-64.6167,80.69,65,40,9.22,scattered clouds,2022-02-14 19:27:02
368,Khatanga,RU,71.9667,102.5,-30.08,100,39,2.8,scattered clouds,2022-02-14 19:30:37
369,Muisne,EC,0.6,-80.0333,77.11,88,88,7.61,light rain,2022-02-14 19:30:37
370,Banda Aceh,ID,5.5577,95.3222,79.16,79,72,3.76,broken clouds,2022-02-14 19:30:37
371,Bosaso,SO,11.2842,49.1816,73.9,73,7,3.13,clear sky,2022-02-14 19:30:38
372,Tucupita,VE,9.0622,-62.051,84.85,50,100,5.35,overcast clouds,2022-02-14 19:30:38
373,Rapid City,US,44.0805,-103.231,46.45,45,0,19.57,clear sky,2022-02-14 19:26:50
374,Kulachi,PK,31.9286,70.4592,60.24,39,6,0.92,clear sky,2022-02-14 19:30:38
375,Atocha,BO,-20.9333,-66.2333,62.44,37,99,8.08,overcast clouds,2022-02-14 19:30:39
376,Tura,IN,25.5198,90.2201,56.61,52,0,3.33,clear sky,2022-02-14 19:30:39
377,Sainte-Maxime,FR,43.3,6.6333,50.94,94,100,9.48,overcast clouds,2022-02-14 19:30:39
378,Saint Marys,US,30.7305,-81.5465,62.06,28,0,9.22,clear sky,2022-02-14 19:30:40
379,Wahiawa,US,21.5028,-158.0236,72.46,66,0,3.44,clear sky,2022-02-14 19:27:05
380,Yulara,AU,-25.2406,130.9889,76.84,36,4,6.91,clear sky,2022-02-14 19:30:40
381,Siocon,PH,7.7061,122.1353,76.33,87,7,7.72,clear sky,2022-02-14 19:30:40
382,Urucara,BR,-2.5364,-57.76,78.58,94,97,1.41,light rain,2022-02-14 19:30:41
383,Voi,KE,-3.3945,38.563,75.07,77,100,4.74,light rain,2022-02-14 19:30:41
384,Shelburne,CA,44.0787,-80.2041,14.76,68,100,8.81,overcast clouds,2022-02-14 19:29:54
385,Demyansk,RU,57.643,32.466,30.54,85,100,11.1,overcast clouds,2022-02-14 19:30:41
386,Sao Filipe,CV,14.8961,-24.4956,73.13,67,100,11.07,overcast clouds,2022-02-14 19:30:42
387,Geraldton,AU,-28.7667,114.6,79.21,69,0,8.05,clear sky,2022-02-14 19:30:42
388,Yerbogachen,RU,61.2767,108.0108,-10.12,100,100,2.62,overcast clouds,2022-02-14 19:30:42
389,Watertown,US,42.3709,-71.1828,24.3,45,20,18.41,few clouds,2022-02-14 19:30:43
390,Derzhavinsk,KZ,51.1,66.3167,12.02,92,100,17.43,overcast clouds,2022-02-14 19:30:43
391,Tessalit,ML,20.1986,1.0114,66.51,16,84,10.47,broken clouds,2022-02-14 19:30:43
392,Nago,JP,26.5881,127.9761,62.67,69,0,12.44,clear sky,2022-02-14 19:30:44
393,Caravelas,BR,-17.7125,-39.2481,81.86,72,0,8.9,clear sky,2022-02-14 19:30:44
394,Gat,IL,31.61,34.7642,55.4,100,0,1.01,clear sky,2022-02-14 19:30:44
395,Pokhara,NP,28.2333,83.9833,54.43,66,61,2.13,broken clouds,2022-02-14 19:30:45
396,Ibipeba,BR,-11.6408,-42.0111,78.1,67,100,1.21,overcast clouds,2022-02-14 19:30:45
397,Limbang,MY,4.75,115.0,80.91,98,90,1.1,overcast clouds,2022-02-14 19:30:45
398,Maragogi,BR,-9.0122,-35.2225,83.37,67,100,12.84,overcast clouds,2022-02-14 19:28:54
399,Llanes,ES,43.4198,-4.7549,48.27,84,90,18.54,overcast clouds,2022-02-14 19:30:46
400,Verkhnyaya Inta,RU,65.9811,60.3094,-5.94,95,10,5.14,clear sky,2022-02-14 19:30:46
401,Ajaigarh,IN,24.9,80.2667,57.15,41,0,4.14,clear sky,2022-02-14 19:30:46
402,Banswada,IN,18.3833,77.8833,69.82,37,5,7.67,clear sky,2022-02-14 19:30:47
403,Nakamura,JP,32.9833,132.9333,39.09,81,0,4.63,clear sky,2022-02-14 19:30:47
404,Tiznit,MA,29.5833,-9.5,54.16,75,1,2.89,clear sky,2022-02-14 19:30:47
405,Alekseyevka,RU,50.6309,38.6903,12.24,93,43,5.3,scattered clouds,2022-02-14 19:30:48
406,Soyo,AO,-6.1349,12.3689,78.71,86,18,6.31,few clouds,2022-02-14 19:30:48
407,Jiwani,PK,25.05,61.7417,71.37,48,0,7.14,clear sky,2022-02-14 19:30:48
408,Kongoussi,BF,13.3258,-1.5347,80.08,11,0,9.6,clear sky,2022-02-14 19:30:49
409,Mana,GF,5.6592,-53.7767,79.21,83,68,9.44,broken clouds,2022-02-14 19:30:49
410,Nelson Bay,AU,-32.7167,152.15,71.01,90,43,1.01,scattered clouds,2022-02-14 19:30:49
411,Salalah,OM,17.0151,54.0924,77.09,19,0,11.5,clear sky,2022-02-14 19:30:50
412,Medea,DZ,36.2642,2.7539,48.65,90,10,5.08,clear sky,2022-02-14 19:30:50
413,Upata,VE,8.0086,-62.3989,81.14,54,100,6.13,overcast clouds,2022-02-14 19:30:50
414,Hofn,IS,64.2539,-15.2082,35.62,64,75,18.41,broken clouds,2022-02-14 19:30:51
415,Neiafu,TO,-18.65,-173.9833,77.68,94,20,0.0,few clouds,2022-02-14 19:30:51
416,Tacuarembo,UY,-31.7333,-55.9833,87.46,17,0,9.64,clear sky,2022-02-14 19:30:51
417,Hambantota,LK,6.1241,81.1185,76.35,72,89,14.32,overcast clouds,2022-02-14 19:30:52
418,Kavkazskiy,RU,44.2672,42.2347,24.33,84,90,11.97,overcast clouds,2022-02-14 19:30:52
419,Alta Floresta,BR,-9.8756,-56.0861,76.82,100,40,4.61,light rain,2022-02-14 19:30:52
420,Brae,GB,60.3964,-1.353,35.51,66,70,14.41,broken clouds,2022-02-14 19:30:52
421,Fairbanks,US,64.8378,-147.7164,-0.18,81,91,1.01,overcast clouds,2022-02-14 19:30:53
422,Hamilton,US,39.1834,-84.5333,30.65,60,75,9.22,broken clouds,2022-02-14 19:30:53
423,Tabas,IR,33.5959,56.9244,50.34,43,0,3.51,clear sky,2022-02-14 19:30:54
424,Hopkinsville,US,36.8656,-87.4886,46.49,45,3,1.01,clear sky,2022-02-14 19:30:54
425,Cap-Aux-Meules,CA,47.3821,-61.8597,17.65,92,100,26.46,overcast clouds,2022-02-14 19:30:54
426,Rawson,AR,-43.3002,-65.1023,65.55,50,100,9.62,overcast clouds,2022-02-14 19:30:55
427,Palu,ID,-0.8917,119.8707,75.99,95,92,2.39,overcast clouds,2022-02-14 19:30:55
428,Jumla,NP,29.2747,82.1838,28.81,72,2,6.44,clear sky,2022-02-14 19:30:55
429,Puri,IN,19.8,85.85,61.32,50,4,3.29,clear sky,2022-02-14 19:30:56
430,Bata,GQ,1.8639,9.7658,82.26,89,20,2.3,few clouds,2022-02-14 19:30:56
431,Clinton,US,42.587,-82.9199,23.9,53,40,9.22,scattered clouds,2022-02-14 19:27:18
432,Midland,US,31.9974,-102.0779,69.35,13,0,10.36,clear sky,2022-02-14 19:26:11
433,Trairi,BR,-3.2778,-39.2689,82.42,72,28,12.68,scattered clouds,2022-02-14 19:30:57
434,Okha,RU,53.5739,142.9478,-10.46,98,79,13.89,broken clouds,2022-02-14 19:30:57
435,Sibu,MY,2.3,111.8167,73.71,100,40,2.3,scattered clouds,2022-02-14 19:30:57
436,Tiksi,RU,71.6872,128.8694,-15.77,92,4,3.76,clear sky,2022-02-14 19:30:58
437,Olafsvik,IS,64.8945,-23.7142,36.27,69,100,27.07,overcast clouds,2022-02-14 19:30:58
438,Hatillo,PR,18.4863,-66.8254,84.49,67,49,11.01,scattered clouds,2022-02-14 19:30:58
439,Ibra,OM,22.6906,58.5334,63.66,61,1,4.23,clear sky,2022-02-14 19:30:59
440,Asgabat,TM,37.95,58.3833,35.46,87,75,9.22,broken clouds,2022-02-14 19:30:59
441,Jasper,US,37.2001,-94.3502,58.28,32,0,6.91,clear sky,2022-02-14 19:30:53
442,Iquique,CL,-20.2208,-70.1431,75.24,67,67,7.23,broken clouds,2022-02-14 19:30:35
443,Saint-Pierre,RE,-21.3393,55.4781,80.28,74,0,3.44,clear sky,2022-02-14 19:30:59
444,Komsomolskiy,UZ,40.4272,71.7189,41.72,65,75,18.41,broken clouds,2022-02-14 19:31:00
445,Bathsheba,BB,13.2167,-59.5167,77.61,73,75,5.75,broken clouds,2022-02-14 19:31:00
446,Andapa,MG,-14.65,49.65,69.24,96,100,3.09,overcast clouds,2022-02-14 19:31:00
447,Namie,JP,37.4833,141.0,31.96,86,100,3.69,overcast clouds,2022-02-14 19:31:01
448,Le Mars,US,42.7942,-96.1656,28.56,50,0,3.44,clear sky,2022-02-14 19:31:01
449,Lethem,GY,3.3803,-59.7968,95.49,33,98,11.81,overcast clouds,2022-02-14 19:31:02
450,Vardo,NO,70.3705,31.1107,28.6,86,75,13.8,broken clouds,2022-02-14 19:31:02
451,Rocha,UY,-34.4833,-54.3333,77.81,41,0,12.64,clear sky,2022-02-14 19:31:02
452,Nantucket,US,41.2835,-70.0995,23.97,77,100,26.24,light snow,2022-02-14 19:27:34
453,Touros,BR,-5.1989,-35.4608,86.9,70,14,13.91,few clouds,2022-02-14 19:31:03
454,Namibe,AO,-15.1961,12.1522,76.96,83,100,3.24,overcast clouds,2022-02-14 19:31:03
455,Krasnoselkup,RU,65.7,82.4667,-8.23,93,7,13.11,clear sky,2022-02-14 19:31:04
456,Qunduz,AF,36.729,68.857,43.57,71,97,2.82,overcast clouds,2022-02-14 19:31:04
457,Ippy,CF,6.2679,21.2247,84.58,14,100,2.33,overcast clouds,2022-02-14 19:31:04
458,Visnes,NO,59.3556,5.2242,41.58,93,75,5.75,light intensity drizzle,2022-02-14 19:31:05
459,Port Macquarie,AU,-31.4333,152.9167,65.89,100,100,0.0,overcast clouds,2022-02-14 19:31:05
460,Ankeny,US,41.7297,-93.6058,31.84,66,100,9.22,overcast clouds,2022-02-14 19:31:03
461,Krasnogorsk,RU,55.8225,37.3181,30.45,69,0,15.66,clear sky,2022-02-14 19:31:05
462,Tevaitoa,PF,-16.7833,-151.5,80.87,77,100,18.37,overcast clouds,2022-02-14 19:31:06
463,Skjervoy,NO,70.0311,20.9714,30.38,45,95,22.88,light snow,2022-02-14 19:31:06
464,Omboue,GA,-1.5746,9.2618,77.76,83,99,6.06,overcast clouds,2022-02-14 19:31:06
465,Makakilo City,US,21.3469,-158.0858,74.28,64,0,6.91,clear sky,2022-02-14 19:31:07
466,Acarau,BR,-2.8856,-40.12,83.08,72,74,16.46,light rain,2022-02-14 19:31:07
467,Ostrovnoy,RU,68.0531,39.5131,15.96,84,7,25.3,clear sky,2022-02-14 19:31:07
468,Murmashi,RU,68.8154,32.8115,28.81,86,75,15.99,broken clouds,2022-02-14 19:31:08
469,Carlagan,PH,14.975,122.0456,76.96,81,73,7.09,broken clouds,2022-02-14 19:31:08
470,Fengzhen,CN,40.4394,113.1536,2.84,94,35,1.63,scattered clouds,2022-02-14 19:31:08
471,Bambanglipuro,ID,-7.95,110.2833,60.6,89,100,3.31,light rain,2022-02-14 19:31:09
472,Canela,BR,-29.3656,-50.8156,77.29,43,0,3.0,clear sky,2022-02-14 19:31:09
473,Coahuayana,MX,18.7333,-103.6833,92.68,43,86,7.07,overcast clouds,2022-02-14 19:31:09
474,Vestmannaeyjar,IS,63.4427,-20.2734,36.86,95,100,50.33,light rain,2022-02-14 19:31:10
475,Boyuibe,BO,-20.4167,-63.2833,84.11,39,99,8.43,overcast clouds,2022-02-14 19:31:10
476,Richards Bay,ZA,-28.783,32.0377,74.59,75,36,8.63,scattered clouds,2022-02-14 19:31:10
477,Ambilobe,MG,-13.2,49.05,74.88,93,98,1.1,overcast clouds,2022-02-14 19:31:11
478,Cecava,BA,44.6867,17.7706,41.77,83,97,4.74,overcast clouds,2022-02-14 19:31:11
479,Maceio,BR,-9.6658,-35.7353,87.24,62,40,16.11,scattered clouds,2022-02-14 19:29:53
480,Vanavara,RU,60.34,102.2797,-26.16,100,54,3.33,broken clouds,2022-02-14 19:31:11
481,Quesnel,CA,52.9999,-122.5029,37.9,81,100,9.22,overcast clouds,2022-02-14 19:30:52
482,Labytnangi,RU,66.6572,66.4183,-24.14,100,97,1.92,overcast clouds,2022-02-14 19:31:12
483,Kichmengskiy Gorodok,RU,59.9816,45.7854,26.13,95,100,7.38,overcast clouds,2022-02-14 19:31:12
484,Strezhevoy,RU,60.7333,77.5889,-4.02,97,100,5.61,overcast clouds,2022-02-14 19:31:13
485,Sullana,PE,-4.9039,-80.6853,85.1,44,79,9.33,broken clouds,2022-02-14 19:31:13
486,Clyde River,CA,70.4692,-68.5914,-10.97,77,100,21.85,light snow,2022-02-14 19:31:13
487,Reconquista,AR,-29.15,-59.65,94.86,13,0,3.15,clear sky,2022-02-14 19:31:14
488,Vershino-Darasunskiy,RU,52.35,115.5167,-14.78,99,99,3.04,overcast clouds,2022-02-14 19:31:14
489,Dalby,AU,-27.1833,151.2667,65.1,90,0,14.16,clear sky,2022-02-14 19:31:14
490,Severo-Kurilsk,RU,50.6789,156.125,25.97,81,100,10.04,overcast clouds,2022-02-14 19:31:15
491,Zyryanovsk,KZ,49.7386,84.2719,16.81,96,100,1.03,snow,2022-02-14 19:31:15
492,Waingapu,ID,-9.6567,120.2641,78.35,86,2,7.27,clear sky,2022-02-14 19:31:15
493,Vilhena,BR,-12.7406,-60.1458,75.42,73,75,3.44,broken clouds,2022-02-14 19:27:53
494,Mananara,MG,-16.1667,49.7667,75.2,94,93,5.5,overcast clouds,2022-02-14 19:31:16
495,Safranbolu,TR,41.2508,32.6942,37.31,97,99,1.05,overcast clouds,2022-02-14 19:31:16
496,Podgornoye,RU,51.735,39.1496,26.82,68,0,8.95,clear sky,2022-02-14 19:28:45
497,Cururupu,BR,-1.8283,-44.8683,79.45,83,94,5.5,overcast clouds,2022-02-14 19:31:17
498,Purpe,RU,64.4803,76.6897,-1.53,97,98,8.23,overcast clouds,2022-02-14 19:31:17
499,Bilma,NE,18.6853,12.9164,72.16,11,1,8.61,clear sky,2022-02-14 19:31:17
500,Manta,EC,-0.95,-80.7333,80.37,72,100,6.42,overcast clouds,2022-02-14 19:31:18
501,Boaco,NI,12.4722,-85.6586,87.64,30,20,21.65,few clouds,2022-02-14 19:31:18
502,Salinopolis,BR,-0.6136,-47.3561,79.05,87,94,10.45,overcast clouds,2022-02-14 19:31:18
503,Launceston,AU,-41.45,147.1667,60.8,91,100,6.91,overcast clouds,2022-02-14 19:29:46
504,Zhob,PK,31.3411,69.4481,51.24,45,22,6.53,few clouds,2022-02-14 19:27:24
505,Taft,IR,31.7471,54.2088,42.75,36,0,2.3,clear sky,2022-02-14 19:31:19
506,College,US,64.8569,-147.8028,-0.2,81,92,3.53,overcast clouds,2022-02-14 19:31:19
507,Zeya,RU,53.75,127.2667,-3.62,93,31,4.76,scattered clouds,2022-02-14 19:31:20
508,Tual,ID,-5.6667,132.75,82.89,73,100,8.32,overcast clouds,2022-02-14 19:31:20
509,Peschanokopskoye,RU,46.1961,41.0775,32.76,62,0,9.22,clear sky,2022-02-14 19:31:20
510,Pangai,TO,-19.8,-174.35,78.91,73,20,12.66,few clouds,2022-02-14 19:31:21
511,Shu,KZ,43.5983,73.7614,29.71,69,100,10.89,overcast clouds,2022-02-14 19:31:21
512,Kangaatsiaq,GL,68.3065,-53.4641,-13.0,98,70,1.52,broken clouds,2022-02-14 19:31:21
513,Namatanai,PG,-3.6667,152.4333,78.75,82,79,4.68,broken clouds,2022-02-14 19:31:21
514,Benguela,AO,-12.5763,13.4055,78.55,77,100,5.26,overcast clouds,2022-02-14 19:31:22
515,Rodino,RU,52.5,80.25,23.65,89,100,17.02,overcast clouds,2022-02-14 19:31:22
516,Grao Mogol,BR,-16.5594,-42.8897,75.79,83,65,1.14,light rain,2022-02-14 19:31:23
517,Kieta,PG,-6.2167,155.6333,79.07,85,100,6.29,overcast clouds,2022-02-14 19:31:23
518,Yarmouth,US,41.7057,-70.2286,24.35,75,100,9.22,overcast clouds,2022-02-14 19:31:23
519,Sidi Ali,DZ,36.0998,0.4206,52.84,86,12,14.32,few clouds,2022-02-14 19:31:23
520,Umm Kaddadah,SD,13.6017,26.6876,67.6,12,24,13.13,few clouds,2022-02-14 19:31:24
521,Skowhegan,US,44.7651,-69.7192,17.83,56,100,10.76,overcast clouds,2022-02-14 19:31:24
522,Gravdal,NO,68.1214,13.5031,24.48,100,100,8.05,shower snow,2022-02-14 19:31:24
523,Ishigaki,JP,24.3448,124.1572,67.23,59,47,20.96,scattered clouds,2022-02-14 19:31:25
524,Port Hedland,AU,-20.3167,118.5667,82.45,83,38,9.22,scattered clouds,2022-02-14 19:31:25
525,Charcas,MX,23.1333,-101.1167,58.15,44,21,5.7,few clouds,2022-02-14 19:31:25
526,Mecca,SA,21.4267,39.8261,74.88,32,0,3.69,clear sky,2022-02-14 19:26:42
527,Sorland,NO,67.667,12.6934,33.66,54,96,15.86,overcast clouds,2022-02-14 19:31:26
528,Asmara,ER,15.3333,38.9333,53.91,84,37,3.89,scattered clouds,2022-02-14 19:31:27
529,Dongsheng,CN,39.8161,109.9776,13.53,60,13,9.26,few clouds,2022-02-14 19:31:27
530,Gandai,IN,21.6667,81.1,60.35,32,2,3.44,clear sky,2022-02-14 19:31:27
531,Aykhal,RU,66.0,111.5,-8.99,61,35,5.39,scattered clouds,2022-02-14 19:31:28
532,Mlowo,TZ,-9.0,32.9833,59.38,95,100,2.91,overcast clouds,2022-02-14 19:31:28
533,Cartagena,CO,10.3997,-75.5144,91.02,52,40,13.8,scattered clouds,2022-02-14 19:30:02
534,Abu Zabad,SD,12.35,29.25,71.15,13,2,13.06,clear sky,2022-02-14 19:31:28
535,Bermeo,ES,43.4209,-2.7215,49.48,82,65,21.54,broken clouds,2022-02-14 19:31:29
536,Chulumani,BO,-16.4096,-67.5263,76.12,64,94,4.05,overcast clouds,2022-02-14 19:31:29
537,Poum,NC,-20.2333,164.0167,80.55,81,100,14.83,overcast clouds,2022-02-14 19:31:29
538,Athabasca,CA,54.7169,-113.2854,21.02,80,100,8.3,overcast clouds,2022-02-14 19:30:53
539,Merauke,ID,-8.4667,140.3333,76.8,87,59,9.06,broken clouds,2022-02-14 19:30:23
540,Usinsk,RU,65.9939,57.5281,4.08,96,56,12.66,broken clouds,2022-02-14 19:31:30
541,Acapulco,MX,16.8634,-99.8901,85.82,70,0,5.75,clear sky,2022-02-14 19:27:56
542,Akita,JP,39.7167,140.1167,30.63,77,100,7.72,overcast clouds,2022-02-14 19:31:30
543,Terney,RU,45.0503,136.6092,25.14,84,100,14.58,light snow,2022-02-14 19:31:31
544,Abu Samrah,SY,35.3029,37.1841,47.91,88,5,8.84,clear sky,2022-02-14 19:31:31
545,Saint-Georges,GD,12.0564,-61.7485,85.68,58,20,16.11,few clouds,2022-02-14 19:31:31
546,Salta,AR,-24.7859,-65.4117,78.58,55,40,7.0,scattered clouds,2022-02-14 19:30:33
547,Kushiro,JP,42.975,144.3747,16.45,85,7,8.32,clear sky,2022-02-14 19:31:32
548,Vaitape,PF,-16.5167,-151.75,80.49,78,100,18.01,light rain,2022-02-14 19:30:41
549,Mantua,IT,45.1667,10.7833,43.29,78,98,1.99,overcast clouds,2022-02-14 19:31:32
550,Lugovoy,KZ,42.9472,72.7644,25.38,93,99,5.7,light snow,2022-02-14 19:31:33
551,Do Gonbadan,IR,30.3586,50.7981,51.89,71,0,0.0,clear sky,2022-02-14 19:31:33
552,Lichuan,CN,30.3,108.85,35.13,83,100,3.62,overcast clouds,2022-02-14 19:31:33
553,Oussouye,SN,12.485,-16.5469,86.18,45,90,7.99,overcast clouds,2022-02-14 19:31:34
554,Sinop,TR,41.7711,34.8709,34.36,91,100,3.15,overcast clouds,2022-02-14 19:31:34
555,Kirando,TZ,-7.4167,30.6,73.53,75,96,5.3,overcast clouds,2022-02-14 19:31:35
556,Talcahuano,CL,-36.7167,-73.1167,67.68,60,0,9.22,clear sky,2022-02-14 19:31:35
557,Ngorongoro,TZ,-3.2397,35.4875,53.42,87,100,1.45,overcast clouds,2022-02-14 19:31:35
558,Lyaskelya,RU,61.7667,31.0167,32.05,99,100,7.54,light snow,2022-02-14 19:31:36
559,Almeirim,BR,-1.5233,-52.5817,80.96,76,99,3.22,overcast clouds,2022-02-14 19:31:36
560,Sirsa,IN,29.5333,75.0167,54.88,66,6,6.89,clear sky,2022-02-14 19:31:36
561,Tocopilla,CL,-22.092,-70.1979,72.48,70,99,8.72,overcast clouds,2022-02-14 19:31:37
562,Mezen,RU,65.8522,44.24,28.74,97,100,9.17,light snow,2022-02-14 19:31:37
563,Ulaanbaatar,MN,47.9077,106.8832,-27.27,68,0,4.47,clear sky,2022-02-14 19:30:18
564,Wajima,JP,37.4,136.9,41.23,76,94,14.18,overcast clouds,2022-02-14 19:31:37
565,Isla Mujeres,MX,21.2311,-86.731,75.25,65,100,16.44,overcast clouds,2022-02-14 19:31:38
566,Kholodnyy,RU,62.7167,147.95,-35.81,99,81,1.79,broken clouds,2022-02-14 19:31:38
567,Hakui,JP,36.8833,136.7833,35.56,85,23,4.97,few clouds,2022-02-14 19:31:38
568,Omis,HR,43.4447,16.6886,50.77,90,98,10.0,overcast clouds,2022-02-14 19:31:39
569,Balikpapan,ID,-1.2675,116.8289,74.43,93,100,2.86,overcast clouds,2022-02-14 19:31:39
570,Berlevag,NO,70.8578,29.0864,33.75,69,75,44.87,broken clouds,2022-02-14 19:31:39
571,Luwuk,ID,-0.9516,122.7875,77.02,84,74,2.59,broken clouds,2022-02-14 19:31:40
572,Hecun,CN,36.5333,114.1111,23.76,46,53,1.74,broken clouds,2022-02-14 19:31:40
573,Sept-Iles,CA,50.2001,-66.3821,7.05,57,100,5.75,overcast clouds,2022-02-14 19:28:26
574,Quelimane,MZ,-17.8786,36.8883,80.55,83,40,4.61,scattered clouds,2022-02-14 19:31:41
575,Sola,VU,-13.8833,167.55,81.77,75,99,14.43,overcast clouds,2022-02-14 19:31:41
576,Hirara,JP,24.8,125.2833,66.22,60,0,21.59,clear sky,2022-02-14 19:31:41
577,Ayorou,NE,14.7308,0.9174,80.49,10,0,6.96,clear sky,2022-02-14 19:31:42
578,Louis Trichardt,ZA,-23.0439,29.9032,72.43,66,50,14.36,scattered clouds,2022-02-14 19:31:42
579,Labuan,MY,5.2767,115.2417,80.96,83,20,3.44,few clouds,2022-02-14 19:31:42
580,Jamtara,IN,23.95,86.8,60.64,46,0,5.37,clear sky,2022-02-14 19:31:43
581,Gayny,RU,60.3071,54.3241,12.11,95,99,5.99,overcast clouds,2022-02-14 19:31:43
582,Groningen,NL,53.25,6.75,47.01,77,75,14.97,broken clouds,2022-02-14 19:31:43
583,Mormugao,IN,15.4,73.8,76.26,61,4,4.61,clear sky,2022-02-14 19:31:43
584,Asau,RO,46.4333,26.4,29.75,84,83,3.67,broken clouds,2022-02-14 19:31:44
585,Guymon,US,36.6828,-101.4816,59.34,24,0,8.05,clear sky,2022-02-14 19:31:44
586,Arlit,NE,18.7369,7.3853,75.56,8,0,7.34,clear sky,2022-02-14 19:31:44
587,Ulladulla,AU,-35.35,150.4667,63.88,86,0,6.2,clear sky,2022-02-14 19:31:45
588,Mahonda,TZ,-6.45,39.4667,80.53,82,100,7.99,overcast clouds,2022-02-14 19:31:45
589,Sadao,TH,6.6388,100.4234,80.6,98,82,3.58,broken clouds,2022-02-14 19:31:46
590,Kibre Mengist,ET,5.8833,38.9833,60.49,39,91,1.99,overcast clouds,2022-02-14 19:31:46
591,Port-Gentil,GA,-0.7193,8.7815,80.44,78,100,10.54,overcast clouds,2022-02-14 19:31:46
592,Russell,US,32.3502,-85.1999,57.9,28,0,4.61,clear sky,2022-02-14 19:30:53
593,Biak,ID,-0.9131,122.8766,75.63,83,67,2.39,broken clouds,2022-02-14 19:31:47
594,Garowe,SO,8.4054,48.4845,68.76,70,100,18.68,overcast clouds,2022-02-14 19:31:47
595,Stromness,GB,58.965,-3.296,39.16,53,59,11.32,broken clouds,2022-02-14 19:31:47
596,Shenandoah,US,30.4013,-91.0009,67.08,30,100,1.99,overcast clouds,2022-02-14 19:31:47
597,Urengoy,RU,65.9667,78.3667,-10.84,99,96,8.95,overcast clouds,2022-02-14 19:30:13
598,Sur,OM,22.5667,59.5289,71.15,66,58,13.31,broken clouds,2022-02-14 19:31:48
599,Hargeysa,SO,9.56,44.065,58.05,95,19,9.01,few clouds,2022-02-14 19:31:48
600,Vila Franca Do Campo,PT,37.7167,-25.4333,61.2,71,65,1.81,broken clouds,2022-02-14 19:31:49
601,Meredith,US,43.6576,-71.5004,19.53,52,20,12.66,few clouds,2022-02-14 19:31:49
602,Cortland,US,42.6001,-76.083,17.74,69,100,9.22,overcast clouds,2022-02-14 19:31:49
603,Muros,ES,42.7762,-9.0603,53.24,87,6,4.76,clear sky,2022-02-14 19:31:50
604,Enshi,CN,30.3,109.4833,41.68,82,99,0.27,overcast clouds,2022-02-14 19:31:50
605,Sembe,CG,1.6481,14.5806,76.95,52,38,1.99,scattered clouds,2022-02-14 19:31:50
606,Bartica,GY,6.4,-58.6167,82.72,78,78,6.17,broken clouds,2022-02-14 19:31:51
607,Staryy Nadym,RU,65.6118,72.6842,-18.8,100,95,6.64,overcast clouds,2022-02-14 19:31:51
608,Bria,CF,6.5423,21.9863,80.17,15,100,1.1,overcast clouds,2022-02-14 19:31:51
609,Thinadhoo,MV,0.5333,72.9333,81.86,74,100,9.31,overcast clouds,2022-02-14 19:31:51
610,Anchorage,US,61.2181,-149.9003,26.92,92,100,5.75,mist,2022-02-14 19:30:36
611,Aswan,EG,24.0934,32.907,67.3,22,0,6.91,clear sky,2022-02-14 19:31:52
612,Zlobin,HR,45.2924,14.6541,39.16,93,100,2.3,overcast clouds,2022-02-14 19:31:52
613,Faya,SA,18.3851,42.4509,57.31,43,1,4.14,clear sky,2022-02-14 19:31:53
614,Vila,PT,42.0304,-8.1588,42.33,90,17,2.51,few clouds,2022-02-14 19:31:53
615,Talnakh,RU,69.4865,88.3972,-11.0,78,49,7.54,scattered clouds,2022-02-14 19:31:53
616,Amaigbo,NG,5.7892,7.8383,84.16,38,97,7.14,overcast clouds,2022-02-14 19:31:54
617,Luanshya,ZM,-13.1367,28.4166,63.55,98,100,3.8,light rain,2022-02-14 19:31:54
618,Akureyri,IS,65.6835,-18.0878,28.33,64,0,18.41,clear sky,2022-02-14 19:31:54
619,Ambon,ID,-3.6954,128.1814,77.14,88,40,9.22,heavy intensity rain,2022-02-14 19:31:55
620,Wucheng,CN,29.6008,118.175,40.51,95,24,2.82,few clouds,2022-02-14 19:31:55
621,Baykit,RU,61.67,96.37,-22.31,100,76,3.76,broken clouds,2022-02-14 19:31:55
622,Campbell River,CA,50.0163,-125.2446,45.93,81,75,6.91,broken clouds,2022-02-14 19:31:56
623,Ukrayinka,UA,47.9167,35.35,31.86,69,0,4.47,clear sky,2022-02-14 19:31:56
624,Dudinka,RU,69.4058,86.1778,-18.17,97,55,4.52,broken clouds,2022-02-14 19:31:56
625,Rutland,US,43.6167,-73.0162,18.25,59,40,9.22,scattered clouds,2022-02-14 19:31:57
626,Comodoro Rivadavia,AR,-45.8667,-67.5,85.86,17,0,21.85,clear sky,2022-02-14 19:31:57
627,Lucea,JM,18.451,-78.1736,82.26,67,7,13.31,clear sky,2022-02-14 19:31:57
628,Saint-Augustin,CA,51.226,-58.6502,5.47,80,100,6.17,overcast clouds,2022-02-14 19:31:58
629,Auki,SB,-8.7676,160.7034,77.68,87,98,4.29,overcast clouds,2022-02-14 19:31:58
630,Port Moresby,PG,-9.4431,147.1797,74.93,90,85,3.8,overcast clouds,2022-02-14 19:31:58
631,Nhulunbuy,AU,-12.2333,136.7667,79.41,78,40,4.61,scattered clouds,2022-02-14 19:31:58
632,Cockburn Town,TC,21.4612,-71.1419,80.56,69,40,6.91,scattered clouds,2022-02-14 19:30:09
633,Mattru,SL,7.6244,-11.8332,80.2,70,15,6.13,few clouds,2022-02-14 19:31:59
634,Mehamn,NO,71.0357,27.8492,33.71,86,100,43.55,light snow,2022-02-14 19:31:59
635,Pozo Colorado,PY,-23.4923,-58.7972,102.7,21,14,1.95,few clouds,2022-02-14 19:32:00
636,Seagoville,US,32.6396,-96.5383,73.15,22,0,11.5,clear sky,2022-02-14 19:32:00
637,Mosquera,CO,4.7059,-74.2302,64.49,63,40,16.11,scattered clouds,2022-02-14 19:32:00
638,Banjarmasin,ID,-3.3244,114.591,75.34,91,77,2.62,broken clouds,2022-02-14 19:32:01
639,Bose,IT,45.4612,8.0137,37.24,88,100,1.68,light snow,2022-02-14 19:32:01
640,Springville,US,40.1652,-111.6107,57.22,28,0,4.61,clear sky,2022-02-14 19:32:01
641,Sao Gabriel Da Cachoeira,BR,-0.1303,-67.0892,73.17,97,100,3.62,overcast clouds,2022-02-14 19:32:02
642,Gushikawa,JP,26.3544,127.8686,61.83,82,75,6.91,broken clouds,2022-02-14 19:32:02
643,Wuwei,CN,37.9281,102.6414,25.23,58,2,2.24,clear sky,2022-02-14 19:32:02
644,Kysyl-Syr,RU,63.8986,122.7617,-34.94,100,55,3.38,broken clouds,2022-02-14 19:32:03
645,Fuxin,CN,42.0156,121.6589,2.62,60,1,7.25,clear sky,2022-02-14 19:32:03
646,Naryan-Mar,RU,67.6713,53.087,9.19,89,100,18.1,overcast clouds,2022-02-14 19:29:50
647,Honiara,SB,-9.4333,159.95,77.11,87,94,6.8,overcast clouds,2022-02-14 19:32:04
648,Takoradi,GH,4.8845,-1.7554,79.93,81,100,7.31,overcast clouds,2022-02-14 19:32:04
649,Dunedin,NZ,-45.8742,170.5036,57.96,71,94,0.78,overcast clouds,2022-02-14 19:30:42
650,Riviere-Au-Renard,CA,48.9957,-64.3971,8.6,81,100,13.24,overcast clouds,2022-02-14 19:32:04
651,Kalengwa,ZM,-13.4659,25.0027,63.57,97,100,3.83,light rain,2022-02-14 19:32:05
652,Severobaykalsk,RU,55.65,109.3167,-13.79,84,16,5.5,few clouds,2022-02-14 19:32:05
653,Colares,PT,38.7992,-9.4469,55.33,64,20,20.0,few clouds,2022-02-14 19:32:05
654,Klaebu,NO,63.2976,10.4826,26.94,80,100,5.3,overcast clouds,2022-02-14 19:32:06
655,Ambunti,PG,-4.2365,142.8448,73.13,100,100,0.85,overcast clouds,2022-02-14 19:32:06
656,Mitsamiouli,KM,-11.3847,43.2844,81.28,79,76,1.86,light rain,2022-02-14 19:32:06
657,Hualmay,PE,-11.0964,-77.6139,76.23,69,15,12.37,few clouds,2022-02-14 19:32:07
658,Sarab,IR,38.6066,44.9883,29.57,74,11,3.83,few clouds,2022-02-14 19:32:07
659,Dawei,MM,14.0833,98.2,74.37,80,64,2.51,broken clouds,2022-02-14 19:32:07
660,Prabumulih,ID,-3.45,104.25,73.62,98,100,1.97,overcast clouds,2022-02-14 19:32:08
661,Chara,RU,56.9064,118.2631,-19.37,82,100,0.16,overcast clouds,2022-02-14 19:32:08
662,Sterling,US,39.0062,-77.4286,32.99,48,75,12.66,snow,2022-02-14 19:32:08
663,Fuling,CN,29.7022,107.3919,50.05,72,89,3.04,overcast clouds,2022-02-14 19:32:09
664,Nyurba,RU,63.2842,118.3319,-26.19,100,100,2.77,overcast clouds,2022-02-14 19:32:09
665,Koumac,NC,-20.5667,164.2833,79.7,82,95,3.76,overcast clouds,2022-02-14 19:32:09
666,Altay,CN,47.8667,88.1167,15.42,79,100,5.26,overcast clouds,2022-02-14 19:32:10
667,Mogadishu,SO,2.0371,45.3438,77.47,78,99,21.14,overcast clouds,2022-02-14 19:29:00
668,Rosetta,EG,31.4044,30.4164,57.02,73,0,12.12,clear sky,2022-02-14 19:32:10
669,San Ignacio,BZ,17.1561,-89.0714,75.34,60,20,11.5,few clouds,2022-02-14 19:32:10
670,Praia Da Vitoria,PT,38.7333,-27.0667,61.75,88,40,8.63,scattered clouds,2022-02-14 19:32:11
671,Palma,ES,39.5694,2.6502,55.09,57,0,3.44,clear sky,2022-02-14 19:32:11
672,Xiongzhou,CN,25.1167,114.3,42.58,95,3,2.91,clear sky,2022-02-14 19:32:11
673,Yumen,CN,40.2833,97.2,24.94,38,9,6.17,clear sky,2022-02-14 19:32:12
674,Tungor,RU,53.3808,142.9564,-10.95,97,58,14.65,broken clouds,2022-02-14 19:32:12
675,Qingdao,CN,36.0986,120.3719,20.8,79,0,4.47,clear sky,2022-02-14 19:32:12
676,Talaya,RU,61.3833,152.75,-37.55,100,100,0.69,overcast clouds,2022-02-14 19:32:13
677,Bichena,ET,10.45,38.2,62.6,30,14,0.81,few clouds,2022-02-14 19:32:13
678,Pishva,IR,35.308,51.7267,47.41,48,5,4.68,clear sky,2022-02-14 19:32:13
679,Nagua,DO,19.3832,-69.8474,80.11,71,19,10.42,few clouds,2022-02-14 19:32:14
680,Nanakuli,US,21.3906,-158.1547,75.7,62,0,6.91,clear sky,2022-02-14 19:32:14
681,Zyryanka,RU,65.75,150.85,-34.55,99,8,6.49,clear sky,2022-02-14 19:32:14
682,Savannah Bight,HN,16.45,-85.85,77.0,78,78,19.8,broken clouds,2022-02-14 19:32:15
683,Karacabey,TR,40.2152,28.4038,43.18,83,59,1.79,broken clouds,2022-02-14 19:32:15
684,Bilibino,RU,68.0546,166.4372,-30.35,100,65,2.42,broken clouds,2022-02-14 19:32:15
685,Freeport,US,40.6576,-73.5832,27.25,43,20,18.41,few clouds,2022-02-14 19:30:52
686,Grindavik,IS,63.8424,-22.4338,34.27,93,100,41.43,snow,2022-02-14 19:32:16
687,Damoh,IN,23.8333,79.45,59.32,30,0,5.28,clear sky,2022-02-14 19:32:16
688,Dukat,RU,62.55,155.55,-32.06,99,60,4.74,broken clouds,2022-02-14 19:32:17
689,Mildura,AU,-34.2,142.15,71.56,53,0,3.44,clear sky,2022-02-14 19:28:19
690,Shimoda,JP,34.6667,138.95,39.31,67,10,2.64,clear sky,2022-02-14 19:32:17
691,Marsh Harbour,BS,26.5412,-77.0636,68.68,58,1,18.68,clear sky,2022-02-14 19:32:17
692,La Romana,DO,18.4273,-68.9728,80.85,64,85,6.93,overcast clouds,2022-02-14 19:32:18
693,Techiman,GH,7.5862,-1.9414,81.64,35,0,3.69,clear sky,2022-02-14 19:32:18
694,Ust-Omchug,RU,61.15,149.6333,-31.79,99,100,2.91,overcast clouds,2022-02-14 19:32:18
695,Birjand,IR,32.8663,59.2211,37.87,52,0,4.61,clear sky,2022-02-14 19:32:19
696,Qasigiannguit,GL,68.8193,-51.1922,-13.47,95,100,3.76,overcast clouds,2022-02-14 19:32:19
697,Atambua,ID,-9.1061,124.8925,72.09,90,10,3.69,clear sky,2022-02-14 19:32:19
698,Poim,RU,53.0264,43.1872,18.68,93,56,10.11,broken clouds,2022-02-14 19:32:20
699,Bintulu,MY,3.1667,113.0333,73.81,100,40,5.01,scattered clouds,2022-02-14 19:32:20
700,Stanceni,RO,46.9833,25.2333,17.33,96,91,2.17,overcast clouds,2022-02-14 19:32:20
701,Lulea,SE,65.5842,22.1547,6.87,92,0,5.75,clear sky,2022-02-14 19:32:21
702,Halifax,CA,44.6453,-63.5724,22.48,88,100,16.11,overcast clouds,2022-02-14 19:30:25
703,Hay River,CA,60.8156,-115.7999,-2.22,78,75,1.14,light snow,2022-02-14 19:30:51
704,Monostorpalyi,HU,47.4,21.7833,39.52,75,16,8.05,few clouds,2022-02-14 19:32:21
705,Egvekinot,RU,66.3167,-179.1667,-15.92,82,1,9.4,clear sky,2022-02-14 19:32:21
706,Amahai,ID,-3.3333,128.9167,76.91,84,99,2.13,overcast clouds,2022-02-14 19:32:22
707,Viedma,AR,-40.8135,-62.9967,74.21,56,3,19.13,clear sky,2022-02-14 19:32:22
